[
  {
    "title" : "job 1 ",
    "company" : "company",
    "description" :"description", 
    "redirect_url" : "url",
    "city" : "seattle",
    "state" : "wa",
    "latitude" : "47.608013",
    "longitude" : " -122.335167"
  },
  {
    "title" : "job 2",
    "company" : "company",
    "description" :"description", 
    "redirect_url" : "url",
    "city" : "seattle",
    "state" : "wa",
    "latitude" : "47.608013",
    "longitude" : " -122.335167"
  },
  {
    "title" : "job 3",
    "company" : "company",
    "description" :"description", 
    "redirect_url" : "url",
    "city" : "seattle",
    "state" : "wa",
    "latitude" : "47.608013",
    "longitude" : " -122.335167"
  },
  {
    "title" : "job 4",
    "company" : "company",
    "description" :"description", 
    "redirect_url" : "url",
    "city" : "seattle",
    "state" : "wa",
    "latitude" : "47.608013",
    "longitude" : " -122.335167"
  },
  {
    "title" : "job 5",
    "company" : "company",
    "description" :"description", 
    "redirect_url" : "url",
    "city" : "seattle",
    "state" : "wa",
    "latitude" : "47.608013",
    "longitude" : " -122.335167"
  },
  {
    "title" : "job 6",
    "company" : "company",
    "description" :"description", 
    "redirect_url" : "url",
    "city" : "seattle",
    "state" : "wa",
    "latitude" : "47.608013",
    "longitude" : " -122.335167"
  },
  {
    "title" : "job 7",
    "company" : "company",
    "description" :"description", 
    "redirect_url" : "url",
    "city" : "seattle",
    "state" : "wa",
    "latitude" : "47.608013",
    "longitude" : " -122.335167"
  },
  {
    "title" : "job 8",
    "company" : "company",
    "description" :"description", 
    "redirect_url" : "url",
    "city" : "seattle",
    "state" : "wa",
    "latitude" : "47.608013",
    "longitude" : " -122.335167"
  },
  {
    "title" : "job 9",
    "company" : "company",
    "description" :"description", 
    "redirect_url" : "url",
    "city" : "seattle",
    "state" : "wa",
    "latitude" : "47.608013",
    "longitude" : " -122.335167"
  },
  {
    "title" : "job 10",
    "company" : "company",
    "description" :"description", 
    "redirect_url" : "url",
    "city" : "seattle",
    "state" : "wa",
    "latitude" : "47.608013",
    "longitude" : " -122.335167"
  }
]